{
"type": "FeatureCollection",
"name": "..\/clean_map_data\/locations\/ab\/being_held_locations.geojson",
"crs": { "type": "name", "properties": { "name": "urn:ogc:def:crs:OGC:1.3:CRS84" } },
"features": [
{ "type": "Feature", "properties": { "agency": "ab", "firename": " EWF-039-2023", "startdate": " 2023-05-06 03:51:00", "hectares": 165.0, "stage_of_control": " BH", "timezone": " MDT" }, "geometry": { "type": "Point", "coordinates": [ -115.871, 53.4706 ] } },
{ "type": "Feature", "properties": { "agency": "ab", "firename": " EWF-037-2023", "startdate": " 2023-05-06 16:47:00", "hectares": 578.0, "stage_of_control": " BH", "timezone": " MDT" }, "geometry": { "type": "Point", "coordinates": [ -117.559, 53.91 ] } },
{ "type": "Feature", "properties": { "agency": "ab", "firename": " GWF-019-2023", "startdate": " 2023-05-05 20:57:00", "hectares": 19435.0, "stage_of_control": " BH", "timezone": " MDT" }, "geometry": { "type": "Point", "coordinates": [ -119.033, 54.7357 ] } },
{ "type": "Feature", "properties": { "agency": "ab", "firename": " SWF-087-2023", "startdate": " 2023-05-17 02:29:00", "hectares": 1036.0, "stage_of_control": " BH", "timezone": " MDT" }, "geometry": { "type": "Point", "coordinates": [ -114.275, 55.2281 ] } },
{ "type": "Feature", "properties": { "agency": "ab", "firename": " SWF-060-2023", "startdate": " 2023-05-04 22:09:00", "hectares": 43981.0, "stage_of_control": " BH", "timezone": " MDT" }, "geometry": { "type": "Point", "coordinates": [ -115.056, 55.9564 ] } },
{ "type": "Feature", "properties": { "agency": "ab", "firename": " SWF-086-2023", "startdate": " 2023-05-17 02:17:00", "hectares": 4742.0, "stage_of_control": " BH", "timezone": " MDT" }, "geometry": { "type": "Point", "coordinates": [ -114.116, 55.1798 ] } },
{ "type": "Feature", "properties": { "agency": "ab", "firename": " PWF-034-2023", "startdate": " 2023-05-05 19:33:00", "hectares": 587.0, "stage_of_control": " BH", "timezone": " MDT" }, "geometry": { "type": "Point", "coordinates": [ -119.479, 56.5452 ] } },
{ "type": "Feature", "properties": { "agency": "ab", "firename": " LWF-138-2023", "startdate": " 2023-05-29 21:53:00", "hectares": 4130.0, "stage_of_control": " BH", "timezone": " MDT" }, "geometry": { "type": "Point", "coordinates": [ -110.357, 55.6255 ] } },
{ "type": "Feature", "properties": { "agency": "ab", "firename": " MWF-023-2023", "startdate": " 2023-05-28 17:15:00", "hectares": 31110.0, "stage_of_control": " BH", "timezone": " MDT" }, "geometry": { "type": "Point", "coordinates": [ -113.215, 57.9763 ] } },
{ "type": "Feature", "properties": { "agency": "ab", "firename": " MWF-021-2023", "startdate": " 2023-05-28 01:40:00", "hectares": 12064.0, "stage_of_control": " BH", "timezone": " MDT" }, "geometry": { "type": "Point", "coordinates": [ -113.296, 57.6939 ] } },
{ "type": "Feature", "properties": { "agency": "ab", "firename": " SWF-081-2023", "startdate": " 2023-05-14 18:37:00", "hectares": 20082.8, "stage_of_control": " BH", "timezone": " MDT" }, "geometry": { "type": "Point", "coordinates": [ -113.459, 56.9909 ] } },
{ "type": "Feature", "properties": { "agency": "ab", "firename": " MSZ-001-2023", "startdate": " 2023-06-04 18:41:00", "hectares": 75.0, "stage_of_control": " BH", "timezone": " MDT" }, "geometry": { "type": "Point", "coordinates": [ -110.006, 58.9446 ] } },
{ "type": "Feature", "properties": { "agency": "ab", "firename": " MWF-030-2023", "startdate": " 2023-06-04 16:25:00", "hectares": 7.4, "stage_of_control": " BH", "timezone": " MDT" }, "geometry": { "type": "Point", "coordinates": [ -110.953, 59.2466 ] } },
{ "type": "Feature", "properties": { "agency": "ab", "firename": " MWF-026-2023", "startdate": " 2023-05-28 19:05:00", "hectares": 1705.0, "stage_of_control": " BH", "timezone": " MDT" }, "geometry": { "type": "Point", "coordinates": [ -111.054, 57.8825 ] } },
{ "type": "Feature", "properties": { "agency": "ab", "firename": " MWF-024-2023", "startdate": " 2023-05-28 18:05:00", "hectares": 24345.0, "stage_of_control": " BH", "timezone": " MDT" }, "geometry": { "type": "Point", "coordinates": [ -110.647, 57.7123 ] } },
{ "type": "Feature", "properties": { "agency": "ab", "firename": " MNZ-001-2023", "startdate": " 2023-06-04 16:41:00", "hectares": 2595.0, "stage_of_control": " BH", "timezone": " MDT" }, "geometry": { "type": "Point", "coordinates": [ -112.669, 58.0639 ] } },
{ "type": "Feature", "properties": { "agency": "ab", "firename": " PWF-054-2023", "startdate": " 2023-06-06 19:55:00", "hectares": 1.46, "stage_of_control": " BH", "timezone": " MDT" }, "geometry": { "type": "Point", "coordinates": [ -119.969, 56.4231 ] } },
{ "type": "Feature", "properties": { "agency": "ab", "firename": " HWF-055-2023", "startdate": " 2023-05-31 16:15:00", "hectares": 0.01, "stage_of_control": " BH", "timezone": " MDT" }, "geometry": { "type": "Point", "coordinates": [ -116.506, 58.0172 ] } },
{ "type": "Feature", "properties": { "agency": "ab", "firename": " SWF-093-2023", "startdate": " 2023-06-07 20:07:00", "hectares": 15.0, "stage_of_control": " BH", "timezone": " MDT" }, "geometry": { "type": "Point", "coordinates": [ -115.94, 56.6716 ] } },
{ "type": "Feature", "properties": { "agency": "ab", "firename": " WWF-042-2023", "startdate": " 2023-06-08 02:28:00", "hectares": 0.1, "stage_of_control": " BH", "timezone": " MDT" }, "geometry": { "type": "Point", "coordinates": [ -115.606, 54.541 ] } }
]
}
